,914.3,M,-94.7,M,,*72
$GPGSA,
A,3,20,29,10,15,23,18,,,,,,,5
.89,1.91,5.57*0C
$GPGSV,4,1,
16,10,30,296,32,11,,,24,15,32
,033,32,16,,,24*76
$GPGSV,4,
2,16,17,,,24,18,43,010,39,19,,
,24,20,37,337,27*77
$GPGSV,4
,3,16,21,,,24,23,38,335,30,24
,29,100,,25,14,179,*41
$GPGS
V,4,4,16,26,08,262,,29,62,168
,33,32,32,216,27,39,30,262,35
*7D
$GPGLL,0946.02014,N,0770
5.80375,E,214718.00,A,A*60

$GPRMC,214719.00,A,0946.02014,
N,07705.80373,E,0.049,,310121,
,,A*73
$GPVTG,,T,,M,0.049,N,0
.091,K,A*26
$GPGGA,214719.00,
0946.02014,N,07705.80373,E,1,0
6,1.91,914.4,M,-94.7,M,,*72
$
GPGSA,A,3,20,29,10,15,23,18,,,
,,,,5.89,1.91,5.57*0C
$GPGSV,
4,1,16,10,30,296,32,11,,,23,15
,32,033,31,16,,,24*72
$GPGSV
,4,2,16,17,,,23,18,43,010,38,1
9,,,23,20,37,337,26*77
$GPGS
V,4,3,16,21,,,23,23,38,335,29,
24,29,100,,25,14,179,*4E
$GP
GSV,4,4,16,26,08,262,,29,62,16
8,32,32,32,216,26,39,30,262,3
4*7C
$GPGLL,0946.02014,N,0770
5.80373,E,214719.00,A,A*67

$GPRMC,214720.00,A,0946.02015,
N,07705.80372,E,0.003,,310121
,,,A*77
$GPVTG,,T,,M,0.003,N,
0.006,K,A*26
$GPGGA,214720.0
0,0946.02015,N,07705.80372,E,1
,06,1.91,914.4,M,-94.7,M,,*78

$GPGSA,A,3,20,29,10,15,23,18
,,,,,,,5.89,1.91,5.57*0C
$GP
GSV,4,1,16,10,30,296,32,11,,,2
3,15,32,033,31,16,,,23*75
$GP
GSV,4,2,16,17,,,23,18,43,010,
38,19,,,23,20,37,337,26*77
$G
PGSV,4,3,16,21,,,22,23,38,335
,30,24,29,100,,25,14,179,*47

$GPGSV,4,4,16,26,08,262,,29,6
2,168,32,32,33,216,26,39,30,26
2,34*7D
$GPGLL,0946.02015,N,
07705.80372,E,214720.00,A,A*6D


$GPRMC,214721.00,A,0946.02018,
N,07705.80369,E,0.044,,310121,
,,A*72
$GPVTG,,T,,M,0.044,N,0
.082,K,A*29
$GPGGA,214721.00,
0946.02018,N,07705.80369,E,1,0
6,1.91,914.5,M,-94.7,M,,*7F

$GPGSA,A,3,20,29,10,15,23,18,,
,,,,,5.89,1.91,5.57*0C
$GPGS
V,4,1,16,10,30,296,32,11,,,23,
15,32,033,31,16,,,23*75
$GPG
SV,4,2,16,17,,,23,18,43,010,38
,19,,,22,20,37,337,26*76
$GP
GSV,4,3,16,21,,,23,23,38,335,3
0,24,29,100,,25,14,179,*46
$
GPGSV,4,4,16,26,08,262,,29,62,
168,32,32,33,216,26,39,30,262
,34*7D
$GPGLL,0946.02018,N,07
705.80369,E,214721.00,A,A*6B


$GPRMC,214722.00,A,0946.02020,
N,07705.80369,E,0.036,,310121,
,,A*7F
$GPVTG,,T,,M,0.036,N,0
.066,K,A*26
$GPGGA,214722.00,
0946.02020,N,07705.80369,E,1,0
6,1.91,914.5,M,-94.7,M,,*77
$
GPGSA,A,3,20,29,10,15,23,18,,,,,,,
5.89,1.91,5.57*0C
$GPGSV,4,1
,16,10,30,296,32,11,,,23,15,32
,033,31,16,,,23*75
$GPGSV,4,
2,16,17,,,23,18,43,010,38,19,
,,22,20,37,337,26*76
$GPGSV,4
,3,16,21,,,23,23,38,335,30,24,
29,100,,25,14,179,*46
$GPGSV,
4,4,16,26,08,262,,29,62,168,32
,32,33,216,26,39,30,262,34*7D

$GPGLL,0946.02020,N,07705.803
69,E,214722.00,A,A*63

$GPRMC,214723.00,A,0946.02021,
N,07705.80367,E,0.049,,310121,
,,A*79
$GPVTG,,T,,M,0.049,N,0
.091,K,A*26
$GPGGA,214723.00,
0946.02021,N,07705.80367,E,1,0
6,1.91,914.5,M,-94.7,M,,*79
$
GPGSA,A,3,20,29,10,15,23,18,,,
,,,,5.89,1.91,5.57*0C
$GPGSV,
4,1,16,10,30,296,32,11,,,23,15
,32,033,31,16,,,23*75
$GPGSV,
4,2,16,17,,,23,18,43,010,38,19
,,,22,20,37,337,26*76
$GPGSV,
4,3,16,21,,,23,23,38,335,30,24
,29,100,,25,14,179,*46
$GPGSV
,4,4,16,26,08,262,,29,62,168,3
2,32,33,216,25,39,30,262,34*7E

$GPGLL,0946.02021,N,07705.80
367,E,214723.00,A,A*6D
$GPRMC,214724.00,A,0946.02022,N,07705.80367,E,0.041,,310121,,,A*75
$GPVTG,,T,,M,0.041,N,0.077,K,A*26
$GPGGA,214724.00,0946.02022,N,07705.80367,E,1,06,1.91,914.6,M,-94.7,M,,*7E
$GPGSA,A,3,20,29,10,15,23,18,,,,,,,5.89,1.91,5.57*0C
$GPGSV,4,1,16,10,30,296,33,11,,,23,15,32,033,31,16,,,23*74
$GPGSV,4,2,16,17,,,23,18,43,010,38,19,,,23,20,37,337,26*77
$GPGSV,4,3,16,21,,,23,23,38,335,30,24,29,100,,25,14,179,*46
$GPGSV,4,4,16,26,08,262,,29,62,168,32,32,33,216,25,39,30,262,34*7E
$GPGLL,0946.02022,N,07705.80367,E,214724.00,A,A*69
$GPRMC,214725.00,A,0946.02024,N,07705.80366,E,0.099,,310121,,,A*76
$GPVTG,,T,,M,0.099,N,0.183,K,A*29
$GPGGA,214725.00,0946.02024,N,07705.80366,E,1,06,1.91,914.5,M,-94.7,M,,*7B
$GPGSA,A,3,20,29,10,15,23,18,,,,,,,5.88,1.91,5.57*0D
$GPGSV,4,1,16,10,30,296,33,11,,,23,15,32,033,31,16,,,23*74
$GPGSV,4,2,16,17,,,22,18,43,010,38,19,,,23,20,37,337,27*77
$GPGSV,4,3,16,21,,,23,23,38,335,30,24,29,100,,25,14,179,*46
$GPGSV,4,4,16,26,08,262,,29,62,168,33,32,33,216,25,39,30,262,35*7E
$GPGLL,0946.02024,N,07705.80366,E,214725.00,A,A*6F
$GPRMC,214726.00,A,0946.02023,N,07705.80369,E,0.066,,310121,,,A*7D
$GPVTG,,T,,M,0.066,N,0.121,K,A*21
$GPGGA,214726.00,0946.02023,N,07705.80369,E,1,06,1.91,914.3,M,-94.7,M,,*76
$GPGSA,A,3,20,29,10,15,23,18,,,,,,,5.88,1.91,5.56*0C
$GPGSV,4,1,16,10,30,296,33,11,,,23,15,32,033,31,16,,,25*72
$GPGSV,4,2,16,17,,,23,18,43,010,38,19,,,23,20,37,337,28*79
$GPGSV,4,3,16,21,,,22,23,38,335,31,24,29,100,,25,14,179,*46
$GPGSV,4,4,16,26,08,262,,29,62,168,33,32,33,216,25,39,30,262,35*7E
$GPGLL,0946.02023,N,07705.80369,E,214726.00,A,A*64
$GPRMC,214727.00,A,0946.02022,N,07705.80371,E,0.010,,310121,,,A*75
$GPVTG,,T,,M,0.010,N,0.019,K,A*2A
$GPGGA,214727.00,0946.02022,N,07705.80371,E,1,06,1.91,914.2,M,-94.7,M,,*7E
$GPGSA,A,3,20,29,10,15,23,18,,,,,,,5.88,1.91,5.56*0C
$GPGSV,4,1,16,10,30,296,33,11,,,23,15,32,033,31,16,,,24*73
$GPGSV,4,2,16,17,,,23,18,43,010,38,19,,,23,20,37,337,28*79
$GPGSV,4,3,16,21,,,23,23,38,335,31,24,29,100,,25,14,179,*47
$GPGSV,4,4,16,26,08,262,,29,62,168,33,32,33,216,25,39,30,262,34*7F
$GPGLL,0946.02022,N,07705.80371,E,214727.00,A,A*6D
$GPRMC,214728.00,A,0946.02021,N,07705.80375,E,0.053,,310121,,,A*7A
$GPVTG,,T,,M,0.053,N,0.098,K,A*24
$GPGGA,214728.00,0946.02021,N,07705.80375,E,1,06,1.91,914.0,M,-94.7,M,,*74
$GPGSA,A,3,20,29,10,15,23,18,,,,,,,5.88,1.91,5.56*0C
$GPGSV,4,1,16,10,30,296,33,11,,,22,15,32,033,31,16,,,26*70
$GPGSV,4,2,16,17,,,23,18,43,010,39,19,,,23,20,37,337,27*77
$GPGSV,4,3,16,21,,,23,23,38,335,30,24,29,100,,25,14,179,*46
$GPGSV,4,4,16,26,08,262,,29,62,168,33,32,33,216,25,39,30,262,34*7F
$GPGLL,0946.02021,N,07705.80375,E,214728.00,A,A*65
$GPRMC,214729.00,A,0946.02022,N,07705.80378,E,0.032,,310121,,,A*72
$GPVTG,,T,,M,0.032,N,0.059,K,A*2E
$GPGGA,214729.00,0946.02022,N,07705.80378,E,1,06,1.91,913.8,M,-94.7,M,,*74
$GPGSA,A,3,20,29,10,15,23,18,,,,,,,5.88,1.91,5.56*0C
$GPGSV,4,1,16,10,30,296,33,11,,,22,15,32,033,31,16,,,25*73
$GPGSV,4,2,16,17,,,23,18,43,010,39,19,,,23,20,37,337,27*77
$GPGSV,4,3,16,21,,,23,23,38,335,30,24,29,100,,25,14,179,*46
$GPGSV,4,4,16,26,08,262,,29,62,168,33,32,33,216,25,39,30,262,34*7F
$GPGLL,0946.02022,N,07705.80378,E,214729.00,A,A*6A
$GPRMC,214730.00,A,0946.02023,N,07705.80380,E,0.020,,310121,,,A*7F
$GPVTG,,T,,M,0.020,N,0.038,K,A*2A
$GPGGA,214730.00,0946.02023,N,07705.80380,E,1,06,1.91,913.9,M,-94.7,M,,*7B
$GPGSA,A,3,20,29,10,15,23,18,,,,,,,5.88,1.91,5.56*0C
$GPGSV,4,1,16,10,30,296,33,11,,,22,15,32,033,31,16,,,24*72
$GPGSV,4,2,16,17,,,23,18,43,010,39,19,,,23,20,37,337,27*77
$GPGSV,4,3,16,21,,,23,23,38,335,30,24,29,100,,25,14,179,*46
$GPGSV,4,4,16,26,08,262,,29,62,168,33,32,33,216,25,39,30,262,35*7E
$GPGLL,0946.02023,N,07705.80380,E,214730.00,A,A*64
$GPRMC,214731.00,A,0946.02021,N,07705.80385,E,0.052,,310121,,,A*7C
$GPVTG,,T,,M,0.052,N,0.096,K,A*2B
$GPGGA,214731.00,0946.02021,N,07705.80385,E,1,06,1.91,913.7,M,-94.7,M,,*73
$GPGSA,A,3,20,29,10,15,23,18,,,,,,,5.88,1.91,5.56*0C
$GPGSV,4,1,16,10,30,296,33,11,,,22,15,32,033,31,16,,,23*75
$GPGSV,4,2,16,17,,,23,18,43,010,39,19,,,2
3,20,37,337,27*77
$GPGSV,4,3,16,21,,,23,23,38,335,30,24,29,100,,25,14,179,*46
$GPGSV,4,4,16,26,08,262,,29,62,168,32,32,33,216,26,39,30,262,34*7D
$GPGLL,0946.02021,N,07705.80385,E,214731.00,A,A*62
$GPRMC,214732.00,A,0946.02019,N,07705.80391,E,0.049,,310121,,,A*7B
$GPVTG,,T,,M,0.049,N,0.092,K,A*25
$GPGGA,214732.00,0946.02019,N,07705.80391,E,1,06,1.91,913.5,M,-94.
7,M,,*7C
$GPGSA,A,3,20,29,10,
15,23,18,,,,,,,5.88,1.91,5.56*
0C
$GPGSV,4,1,16,10,30,296,33
,11,,,22,15,32,033,31,16,,,23*
75
$GPGSV,4,2,16,17,,,23,18,4
3,010,39,19,,,23,20,37,337,27*
77
$GPGSV,4,3,16,21,,,23,23,3
8,335,30,24,29,100,,25,14,179,
*46
$GPGSV,4,4,16,26,08,262,,
29,62,168,33,32,33,216,26,39,3
0,262,34*7C
$GPGLL,0946.02019
,N,07705.80391,E,214732.00,A,A
*6F

$GPRMC,214733.00,A,0946.02017,
N,07705.80395,E,0.020,,310121,
,,A*7F
$GPVTG,,T,,M,0.020,N,0
.038,K,A*2A
$GPGGA,214733.00,
0946.02017,N,07705.80395,E,1,0
6,1.91,913.3,M,-94.7,M,,*71
$
GPGSA,A,3,20,29,10,15,23,18,,,
,,,,5.87,1.91,5.56*03
$GPGSV,
4,1,16,10,30,296,33,11,,,23,15
,32,033,32,16,,,22*76
$GPGSV,
4,2,16,17,,,22,18,43,010,39,19
,,,23,20,37,337,27*76
$GPGSV,
4,3,16,21,,,23,23,38,335,30,24
,29,100,,25,14,179,*46
$GPGSV
,4,4,16,26,08,262,,29,62,168,3
3,32,33,216,26,39,30,262,34*7C

$GPGLL,0946.02017,N,07705.80
395,E,214733.00,A,A*64

$GPRMC,214734.00,A,0946.02017,
N,07705.80399,E,0.039,,310121,
,,A*7C
$GPVTG,,T,,M,0.039,N,0
.073,K,A*2D
$GPGGA,214734.00,
0946.02017,N,07705.80399,E,1,0
6,1.91,913.2,M,-94.7,M,,*7B
$
GPGSA,A,3,20,29,10,15,23,18,,,
,,,,5.87,1.91,5.55*00
$GPGSV,
4,1,16,10,30,296,33,11,,,23,15
,32,033,31,16,,,22*75
$GPGSV,
4,2,16,17,,,23,18,43,010,39,19
,,,23,20,37,337,27*77
$GPGSV,
4,3,16,21,,,23,23,38,335,30,24
,29,100,,25,14,179,*46
$GPGSV
,4,4,16,26,08,262,,29,62,168,3
3,32,33,216,26,39,30,262,34*7C

$GPGLL,0946.02017,N,07705.80
399,E,214734.00,A,A*6F

$GPRMC,214735.00,A,0946.02016,
N,07705.80400,E,0.058,,310121,
,,A*7C
$GPVTG,,T,,M,0.058,N,0
.107,K,A*28
$GPGGA,214735.00,
0946.02016,N,07705.80400,E,1,0
6,1.91,913.2,M,-94.7,M,,*7C
$
GPGSA,A,3,20,29,10,15,23,18,,,
,,,,5.87,1.91,5.55*00
$GPGSV,
4,1,16,10,30,296,33,11,,,23,15
,32,033,32,16,,,22*76
$GPGSV,
4,2,16,17,,,23,18,43,010,39,19
,,,23,20,37,337,27*77
$GPGSV,
4,3,16,21,,,23,23,38,335,30,24
,29,100,,25,14,179,*46
$GPGSV
,4,4,16,26,08,262,,29,62,168,3
3,32,33,216,26,39,30,262,34*7C

$GPGLL,0946.02016,N,07705.80
400,E,214735.00,A,A*68

$GPRMC,214736.00,A,0946.02016,
N,07705.80403,E,0.022,,310121,
,,A*71
$GPVTG,,T,,M,0.022,N,0
.041,K,A*26
$GPGGA,214736.00,
0946.02016,N,07705.80403,E,1,0
6,1.91,913.2,M,-94.7,M,,*7C
$
GPGSA,A,3,20,29,10,15,23,18,,,
,,,,5.87,1.91,5.55*00
$GPGSV,
4,1,16,10,30,296,33,11,,,23,15
,32,033,31,16,,,22*75
$GPGSV,
4,2,16,17,,,23,18,43,010,39,19
,,,23,20,37,337,27*77
$GPGSV,
4,3,16,21,,,23,23,38,335,30,24
,29,100,,25,14,179,*46
$GPGSV
,4,4,16,26,08,262,,29,62,168,3
3,32,33,216,26,39,30,262,34*7C

$GPGLL,0946.02016,N,07705.80
403,E,214736.00,A,A*68

$GPRMC,214737.00,A,0946.02015,
N,07705.80405,E,0.009,,310121,
,,A*7C
$GPVTG,,T,,M,0.009,N,0
.018,K,A*23
$GPGGA,214737.00,
0946.02015,N,07705.80405,E,1,0
6,1.91,913.1,M,-94.7,M,,*7B
$
GPGSA,A,3,20,29,10,15,23,18,,,
,,,,5.87,1.91,5.55*00
$GPGSV,
4,1,16,10,30,296,33,11,,,23,15
,32,033,31,16,,,21*76
$GPGSV,
4,2,16,17,,,22,18,43,010,38,19
,,,23,20,37,337,28*78
$GPGSV,
4,3,16,21,,,23,23,38,335,31,24
,29,100,,25,14,179,*47
$GPGSV
,4,4,16,26,08,262,,29,62,168,3
3,32,33,216,25,39,30,262,34*7F

$GPGLL,0946.02015,N,07705.80
405,E,214737.00,A,A*6C

$GPRMC,214738.00,A,0946.02016,
N,07705.80410,E,0.076,,310121,
,,A*7C
$GPVTG,,T,,M,0.076,N,0
.141,K,A*26
$GPGGA,214738.00,
0946.02016,N,07705.80410,E,1,0
6,1.91,912.9,M,-94.7,M,,*7A
$
GPGSA,A,3,20,29,10,15,23,18,,,
,,,,5.87,1.91,5.55*00
$GPGSV,
4,1,15,10,30,296,33,11,,,23,15
,32,033,31,17,,,22*77
$GPGSV,
4,2,15,18,43,010,38,19,,,22,20
,37,337,29,21,,,22*7E
$GPGSV,
4,3,15,23,38,335,32,24,29,100,
,25,14,179,,26,08,262,*7F
$GP
GSV,4,4,15,29,62,168,33,32,33,
216,25,39,30,262,34*46
$GPGLL
,0946.02016,N,07705.80410,E,21
